[
  {"name":"Hazratganj Market","location":"Hazratganj, Lucknow","city":"Lucknow","category":"Shops","description":"Hazratganj Market is a central shopping area for clothing, medicines nearby, food, banks, and daily services in Lucknow.","services":["shops","pharmacy nearby","food","banks"],"tags":["lucknow","shops","market","essentials"],"hours":"Verify before visiting","cost":"Paid shopping","lat":26.8505,"lon":80.9467,"source":"expanded city seed"},
  {"name":"Aminabad Market","location":"Aminabad, Lucknow","city":"Lucknow","category":"Shops","description":"Aminabad Market is a busy local market for affordable clothes, groceries, household items, and street food.","services":["clothing","groceries","household supplies","food stalls"],"tags":["lucknow","shops","market","low cost"],"hours":"Verify before visiting","cost":"Paid shopping","lat":26.8494,"lon":80.9230,"source":"expanded city seed"},
  {"name":"King George's Medical University","location":"Chowk, Lucknow","city":"Lucknow","category":"Hospital","description":"King George's Medical University is a major public medical institution and hospital resource in Lucknow.","services":["hospital","emergency care","specialist care","medical college"],"tags":["lucknow","hospital","kgmu","medical"],"hours":"Emergency services may be 24 hours; verify departments","cost":"Government or subsidized services may vary","lat":26.8690,"lon":80.9168,"source":"expanded city seed"},
  {"name":"Robin Hood Army Lucknow","location":"Lucknow city chapter","city":"Lucknow","category":"NGO","description":"Robin Hood Army Lucknow is a volunteer network for food redistribution and community outreach when drives are active.","services":["food distribution","volunteer support","hunger relief"],"tags":["lucknow","ngo","free food","volunteers"],"hours":"Volunteer schedule varies","cost":"Free support when available","lat":26.8467,"lon":80.9462,"source":"expanded city seed"},
  {"name":"Lucknow Charbagh Railway Station","location":"Charbagh, Lucknow","city":"Lucknow","category":"Transportation","description":"Lucknow Charbagh Railway Station connects local and long-distance rail travel with nearby buses and autos.","services":["railway","autos","bus nearby","long-distance travel"],"tags":["lucknow","transport","train","charbagh"],"hours":"Train schedules vary","cost":"Ticketed travel","lat":26.8318,"lon":80.9211,"source":"expanded city seed"},

  {"name":"Sarojini Nagar Market","location":"Sarojini Nagar, New Delhi","city":"Delhi","category":"Shops","description":"Sarojini Nagar Market is a popular shopping area for clothes, footwear, daily items, and food stalls.","services":["clothing","footwear","daily essentials","food stalls"],"tags":["delhi","shops","market","low cost"],"hours":"Verify before visiting","cost":"Paid shopping","lat":28.5778,"lon":77.1965,"source":"expanded city seed"},
  {"name":"Chandni Chowk Market","location":"Old Delhi, Delhi","city":"Delhi","category":"Shops","description":"Chandni Chowk Market is a large traditional market for medicines nearby, groceries, textiles, food, and household supplies.","services":["textiles","groceries","food","household supplies"],"tags":["delhi","shops","market","old delhi"],"hours":"Verify before visiting","cost":"Paid shopping","lat":28.6562,"lon":77.2301,"source":"expanded city seed"},
  {"name":"AIIMS New Delhi","location":"Ansari Nagar, New Delhi","city":"Delhi","category":"Hospital","description":"AIIMS New Delhi is a major public hospital and referral medical institution in Delhi.","services":["hospital","emergency care","specialist care","public health"],"tags":["delhi","hospital","aiims","medical"],"hours":"Emergency services may be 24 hours; verify departments","cost":"Government or subsidized services may vary","lat":28.5672,"lon":77.2100,"source":"expanded city seed"},
  {"name":"Gurdwara Bangla Sahib Langar","location":"Ashoka Road, Connaught Place, New Delhi","city":"Delhi","category":"Free Food","description":"Gurdwara Bangla Sahib is known for community langar and public meal support. Visitors should follow local rules and timings.","services":["langar","community meals","water","volunteer support"],"tags":["delhi","free food","langar","community kitchen"],"hours":"Verify langar timings before visiting","cost":"Free community meal","lat":28.6264,"lon":77.2089,"source":"expanded city seed"},
  {"name":"Kashmere Gate ISBT and Metro","location":"Kashmere Gate, Delhi","city":"Delhi","category":"Transportation","description":"Kashmere Gate connects interstate buses, Delhi Metro interchange routes, autos, and local transport.","services":["interstate buses","metro","autos","local buses"],"tags":["delhi","transport","bus","metro"],"hours":"Service schedules vary","cost":"Ticketed travel","lat":28.6669,"lon":77.2285,"source":"expanded city seed"},

  {"name":"Godowlia Market","location":"Godowlia, Banaras","city":"Banaras","category":"Shops","description":"Godowlia Market is a busy Banaras shopping area for daily goods, religious items, food, and local services.","services":["daily essentials","food stalls","religious items","shops"],"tags":["banaras","varanasi","shops","market"],"hours":"Verify before visiting","cost":"Paid shopping","lat":25.3096,"lon":83.0104,"source":"expanded city seed"},
  {"name":"Vishwanath Gali Market","location":"Near Kashi Vishwanath Temple, Banaras","city":"Banaras","category":"Shops","description":"Vishwanath Gali Market has small shops for essentials, religious goods, food, and local assistance near the old city.","services":["small shops","food","religious goods","daily essentials"],"tags":["banaras","varanasi","shops","old city"],"hours":"Verify before visiting","cost":"Paid shopping","lat":25.3109,"lon":83.0107,"source":"expanded city seed"},
  {"name":"Sir Sunderlal Hospital BHU","location":"Banaras Hindu University, Banaras","city":"Banaras","category":"Hospital","description":"Sir Sunderlal Hospital at BHU is a major hospital resource serving Banaras and nearby areas.","services":["hospital","emergency care","specialist care","medical college"],"tags":["banaras","varanasi","hospital","bhu"],"hours":"Emergency services may be 24 hours; verify departments","cost":"Government or subsidized services may vary","lat":25.2677,"lon":82.9913,"source":"expanded city seed"},
  {"name":"Robin Hood Army Varanasi","location":"Banaras city chapter","city":"Banaras","category":"NGO","description":"Robin Hood Army Varanasi coordinates volunteer food support and outreach when city drives are active.","services":["food distribution","volunteer support","hunger relief"],"tags":["banaras","varanasi","ngo","free food"],"hours":"Volunteer schedule varies","cost":"Free support when available","lat":25.3176,"lon":82.9739,"source":"expanded city seed"},
  {"name":"Varanasi Junction Railway Station","location":"Cantt, Banaras","city":"Banaras","category":"Transportation","description":"Varanasi Junction connects rail travel with autos, city transport, and nearby market access.","services":["railway","autos","bus nearby","long-distance travel"],"tags":["banaras","varanasi","transport","train"],"hours":"Train schedules vary","cost":"Ticketed travel","lat":25.3265,"lon":82.9861,"source":"expanded city seed"},

  {"name":"New Market Bhopal","location":"TT Nagar, Bhopal","city":"Bhopal","category":"Shops","description":"New Market Bhopal is a central market for groceries, clothes, medicines nearby, food, and daily services.","services":["shops","groceries","pharmacy nearby","food"],"tags":["bhopal","shops","market","essentials"],"hours":"Verify before visiting","cost":"Paid shopping","lat":23.2362,"lon":77.4009,"source":"expanded city seed"},
  {"name":"DB City Mall","location":"Arera Hills, Bhopal","city":"Bhopal","category":"Mall","description":"DB City Mall is a major mall in Bhopal with retail stores, food court, ATMs, and ride pickup areas.","services":["shopping","food court","ATMs","cab pickup"],"tags":["bhopal","mall","shops","food"],"hours":"Verify before visiting","cost":"Paid shopping, free entry","lat":23.2332,"lon":77.4296,"source":"expanded city seed"},
  {"name":"AIIMS Bhopal","location":"Saket Nagar, Bhopal","city":"Bhopal","category":"Hospital","description":"AIIMS Bhopal is a major public medical institution and hospital resource in Bhopal.","services":["hospital","emergency care","specialist care","public health"],"tags":["bhopal","hospital","aiims","medical"],"hours":"Emergency services may be 24 hours; verify departments","cost":"Government or subsidized services may vary","lat":23.2069,"lon":77.4599,"source":"expanded city seed"},
  {"name":"Robin Hood Army Bhopal","location":"Bhopal city chapter","city":"Bhopal","category":"NGO","description":"Robin Hood Army Bhopal is a volunteer network for food redistribution and local community support drives.","services":["food distribution","volunteer support","hunger relief"],"tags":["bhopal","ngo","free food","volunteers"],"hours":"Volunteer schedule varies","cost":"Free support when available","lat":23.2599,"lon":77.4126,"source":"expanded city seed"},
  {"name":"Bhopal Junction Railway Station","location":"Bhopal Junction, Bhopal","city":"Bhopal","category":"Transportation","description":"Bhopal Junction connects rail travel with local buses, autos, and city transport.","services":["railway","autos","bus nearby","long-distance travel"],"tags":["bhopal","transport","train"],"hours":"Train schedules vary","cost":"Ticketed travel","lat":23.2674,"lon":77.4138,"source":"expanded city seed"},

  {"name":"KP Road Market Gaya","location":"KP Road, Gaya","city":"Gaya","category":"Shops","description":"KP Road Market is a local shopping area for daily essentials, groceries, medicines nearby, and food stalls.","services":["shops","groceries","pharmacy nearby","food stalls"],"tags":["gaya","shops","market","essentials"],"hours":"Verify before visiting","cost":"Paid shopping","lat":24.7955,"lon":85.0030,"source":"expanded city seed"},
  {"name":"Vishnupad Area Shops","location":"Vishnupad Temple Area, Gaya","city":"Gaya","category":"Shops","description":"Vishnupad Area Shops include small stores, food, water, religious supplies, and local services near the temple area.","services":["small shops","food","water","daily essentials"],"tags":["gaya","shops","market","pilgrim services"],"hours":"Verify before visiting","cost":"Paid shopping","lat":24.7798,"lon":85.0042,"source":"expanded city seed"},
  {"name":"Anugrah Narayan Magadh Medical College Hospital","location":"Gaya-Dobhi Road, Gaya","city":"Gaya","category":"Hospital","description":"Anugrah Narayan Magadh Medical College Hospital is a major public hospital resource for Gaya and nearby districts.","services":["hospital","emergency care","medical college","public health"],"tags":["gaya","hospital","medical"],"hours":"Emergency services may be 24 hours; verify departments","cost":"Government or subsidized services may vary","lat":24.7528,"lon":84.9837,"source":"expanded city seed"},
  {"name":"Robin Hood Army Gaya","location":"Gaya city chapter","city":"Gaya","category":"NGO","description":"Robin Hood Army Gaya is a volunteer community for food support and outreach when local drives are active.","services":["food distribution","volunteer support","hunger relief"],"tags":["gaya","ngo","free food","volunteers"],"hours":"Volunteer schedule varies","cost":"Free support when available","lat":24.7914,"lon":85.0002,"source":"expanded city seed"},
  {"name":"Gaya Junction Railway Station","location":"Station Road, Gaya","city":"Gaya","category":"Transportation","description":"Gaya Junction connects rail travel with autos, local buses, and access to city markets and hospitals.","services":["railway","autos","bus nearby","long-distance travel"],"tags":["gaya","transport","train"],"hours":"Train schedules vary","cost":"Ticketed travel","lat":24.7964,"lon":85.0070,"source":"expanded city seed"},

  {"name":"Maurya Lok Complex","location":"Dak Bungalow Road, Patna","city":"Patna","category":"Shops","description":"Maurya Lok Complex is a central shopping and service area in Patna with shops, food, banks, and pharmacies nearby.","services":["shops","food","banks","pharmacy nearby"],"tags":["patna","shops","market","services"],"hours":"Verify before visiting","cost":"Paid shopping","lat":25.6101,"lon":85.1412,"source":"expanded city seed"},
  {"name":"Patna Market","location":"Ashok Rajpath, Patna","city":"Patna","category":"Shops","description":"Patna Market is a busy local market for clothes, daily essentials, books, medicines nearby, and food.","services":["clothing","daily essentials","books","food"],"tags":["patna","shops","market","essentials"],"hours":"Verify before visiting","cost":"Paid shopping","lat":25.6150,"lon":85.1593,"source":"expanded city seed"},
  {"name":"AIIMS Patna","location":"Phulwari Sharif, Patna","city":"Patna","category":"Hospital","description":"AIIMS Patna is a major public hospital and medical institution serving Patna and nearby districts.","services":["hospital","emergency care","specialist care","public health"],"tags":["patna","hospital","aiims","medical"],"hours":"Emergency services may be 24 hours; verify departments","cost":"Government or subsidized services may vary","lat":25.5623,"lon":85.0439,"source":"expanded city seed"},
  {"name":"Takht Sri Patna Sahib Langar","location":"Patna Sahib, Patna","city":"Patna","category":"Free Food","description":"Takht Sri Patna Sahib is known for community langar and public meal support. Visitors should verify timings and follow local rules.","services":["langar","community meals","water","volunteer support"],"tags":["patna","free food","langar","community kitchen"],"hours":"Verify langar timings before visiting","cost":"Free community meal","lat":25.5958,"lon":85.2290,"source":"expanded city seed"},
  {"name":"Patna Junction Railway Station","location":"Patna Junction, Patna","city":"Patna","category":"Transportation","description":"Patna Junction connects rail travel with local buses, autos, and city transport.","services":["railway","autos","bus nearby","long-distance travel"],"tags":["patna","transport","train"],"hours":"Train schedules vary","cost":"Ticketed travel","lat":25.6028,"lon":85.1376,"source":"expanded city seed"},

  {"name":"Civil Lines Market","location":"Civil Lines, Allahabad","city":"Allahabad","category":"Shops","description":"Civil Lines Market is a central shopping area for clothing, medicines nearby, food, banks, and local services.","services":["shops","pharmacy nearby","food","banks"],"tags":["allahabad","allabhad","prayagraj","shops","market"],"hours":"Verify before visiting","cost":"Paid shopping","lat":25.4540,"lon":81.8346,"source":"expanded city seed"},
  {"name":"Chowk Market Allahabad","location":"Chowk, Allahabad","city":"Allahabad","category":"Shops","description":"Chowk Market is a traditional market for groceries, household goods, clothing, food, and daily essentials.","services":["groceries","household supplies","clothing","food"],"tags":["allahabad","allabhad","prayagraj","shops","market"],"hours":"Verify before visiting","cost":"Paid shopping","lat":25.4358,"lon":81.8463,"source":"expanded city seed"},
  {"name":"Swaroop Rani Nehru Hospital","location":"Medical College Campus, Allahabad","city":"Allahabad","category":"Hospital","description":"Swaroop Rani Nehru Hospital is a major public hospital resource for Allahabad and nearby areas.","services":["hospital","emergency care","medical college","public health"],"tags":["allahabad","allabhad","prayagraj","hospital","medical"],"hours":"Emergency services may be 24 hours; verify departments","cost":"Government or subsidized services may vary","lat":25.4357,"lon":81.8504,"source":"expanded city seed"},
  {"name":"Robin Hood Army Prayagraj","location":"Allahabad city chapter","city":"Allahabad","category":"NGO","description":"Robin Hood Army Prayagraj coordinates volunteer food support and outreach when local drives are active.","services":["food distribution","volunteer support","hunger relief"],"tags":["allahabad","allabhad","prayagraj","ngo","free food"],"hours":"Volunteer schedule varies","cost":"Free support when available","lat":25.4358,"lon":81.8463,"source":"expanded city seed"},
  {"name":"Prayagraj Junction Railway Station","location":"Civil Lines, Allahabad","city":"Allahabad","category":"Transportation","description":"Prayagraj Junction connects rail travel with autos, buses, and access to city markets and hospitals.","services":["railway","autos","bus nearby","long-distance travel"],"tags":["allahabad","allabhad","prayagraj","transport","train"],"hours":"Train schedules vary","cost":"Ticketed travel","lat":25.4454,"lon":81.8268,"source":"expanded city seed"},

  {"name":"Central Market Mangalore","location":"Hampankatta, Mangalore","city":"Mangalore","category":"Shops","description":"Central Market Mangalore is a local market for groceries, household items, food, and daily essentials.","services":["groceries","household supplies","food","daily essentials"],"tags":["mangalore","manglore","mangaluru","shops","market"],"hours":"Verify before visiting","cost":"Paid shopping","lat":12.8692,"lon":74.8436,"source":"expanded city seed"},
  {"name":"City Centre Mall Mangalore","location":"KS Rao Road, Mangalore","city":"Mangalore","category":"Mall","description":"City Centre Mall Mangalore offers retail shops, food court, ATMs, and central city access.","services":["shopping","food court","ATMs","cab pickup"],"tags":["mangalore","manglore","mangaluru","mall","shops"],"hours":"Verify before visiting","cost":"Paid shopping, free entry","lat":12.8728,"lon":74.8428,"source":"expanded city seed"},
  {"name":"Wenlock District Hospital","location":"Hampankatta, Mangalore","city":"Mangalore","category":"Hospital","description":"Wenlock District Hospital is a major public hospital resource serving Mangalore and nearby areas.","services":["hospital","emergency care","public health","district hospital"],"tags":["mangalore","manglore","mangaluru","hospital"],"hours":"Emergency services may be 24 hours; verify departments","cost":"Government or subsidized services may vary","lat":12.8650,"lon":74.8425,"source":"expanded city seed"},
  {"name":"Robin Hood Army Mangalore","location":"Mangalore city chapter","city":"Mangalore","category":"NGO","description":"Robin Hood Army Mangalore is a volunteer network for food redistribution and community outreach when drives are active.","services":["food distribution","volunteer support","hunger relief"],"tags":["mangalore","manglore","mangaluru","ngo","free food"],"hours":"Volunteer schedule varies","cost":"Free support when available","lat":12.9141,"lon":74.8560,"source":"expanded city seed"},
  {"name":"Mangalore Central Railway Station","location":"Hampankatta, Mangalore","city":"Mangalore","category":"Transportation","description":"Mangalore Central connects rail travel with autos, buses, and nearby city markets.","services":["railway","autos","bus nearby","long-distance travel"],"tags":["mangalore","manglore","mangaluru","transport","train"],"hours":"Train schedules vary","cost":"Ticketed travel","lat":12.8654,"lon":74.8439,"source":"expanded city seed"},

  {"name":"FC Road Shops","location":"Fergusson College Road, Pune","city":"Pune","category":"Shops","description":"FC Road is a busy Pune shopping and food area with stores, eateries, banks, pharmacies nearby, and student services.","services":["shops","food","pharmacy nearby","banks"],"tags":["pune","shops","market","fc road"],"hours":"Verify before visiting","cost":"Paid shopping","lat":18.5220,"lon":73.8417,"source":"expanded city seed"},
  {"name":"Phoenix Marketcity Pune","location":"Viman Nagar, Pune","city":"Pune","category":"Mall","description":"Phoenix Marketcity Pune is a large mall with retail, dining, entertainment, ATMs, and ride pickup zones.","services":["shopping","dining","entertainment","cab pickup"],"tags":["pune","mall","shops","food"],"hours":"Verify before visiting","cost":"Paid shopping, free entry","lat":18.5617,"lon":73.9169,"source":"expanded city seed"},
  {"name":"Sassoon General Hospital","location":"Station Road, Pune","city":"Pune","category":"Hospital","description":"Sassoon General Hospital is a major public hospital and medical college resource in Pune.","services":["hospital","emergency care","medical college","public health"],"tags":["pune","hospital","medical"],"hours":"Emergency services may be 24 hours; verify departments","cost":"Government or subsidized services may vary","lat":18.5293,"lon":73.8739,"source":"expanded city seed"},
  {"name":"Robin Hood Army Pune","location":"Pune city chapter","city":"Pune","category":"NGO","description":"Robin Hood Army Pune supports food redistribution and community outreach through volunteer drives.","services":["food distribution","volunteer support","hunger relief"],"tags":["pune","ngo","free food","volunteers"],"hours":"Volunteer schedule varies","cost":"Free support when available","lat":18.5204,"lon":73.8567,"source":"expanded city seed"},
  {"name":"Pune Junction Railway Station","location":"Pune Junction, Pune","city":"Pune","category":"Transportation","description":"Pune Junction connects rail travel with buses, autos, and city transport routes.","services":["railway","autos","bus nearby","long-distance travel"],"tags":["pune","transport","train"],"hours":"Train schedules vary","cost":"Ticketed travel","lat":18.5289,"lon":73.8744,"source":"expanded city seed"},

  {"name":"T Nagar Ranganathan Street Shops","location":"T Nagar, Chennai","city":"Chennai","category":"Shops","description":"Ranganathan Street in T Nagar is a major shopping area for clothing, groceries, household goods, food, and daily services.","services":["clothing","groceries","household supplies","food"],"tags":["chennai","shops","market","t nagar"],"hours":"Verify before visiting","cost":"Paid shopping","lat":13.0418,"lon":80.2337,"source":"expanded city seed"},
  {"name":"Phoenix Marketcity Chennai","location":"Velachery, Chennai","city":"Chennai","category":"Mall","description":"Phoenix Marketcity Chennai is a large mall with retail stores, food court, entertainment, ATMs, and ride pickup areas.","services":["shopping","food court","entertainment","cab pickup"],"tags":["chennai","mall","shops","food"],"hours":"Verify before visiting","cost":"Paid shopping, free entry","lat":12.9915,"lon":80.2170,"source":"expanded city seed"},
  {"name":"Rajiv Gandhi Government General Hospital","location":"Park Town, Chennai","city":"Chennai","category":"Hospital","description":"Rajiv Gandhi Government General Hospital is a major public hospital resource in central Chennai.","services":["hospital","emergency care","public health","medical college"],"tags":["chennai","hospital","government hospital"],"hours":"Emergency services may be 24 hours; verify departments","cost":"Government or subsidized services may vary","lat":13.0817,"lon":80.2765,"source":"expanded city seed"},
  {"name":"Robin Hood Army Chennai","location":"Chennai city chapter","city":"Chennai","category":"NGO","description":"Robin Hood Army Chennai coordinates food redistribution and volunteer outreach when city drives are active.","services":["food distribution","volunteer support","hunger relief"],"tags":["chennai","ngo","free food","volunteers"],"hours":"Volunteer schedule varies","cost":"Free support when available","lat":13.0827,"lon":80.2707,"source":"expanded city seed"},
  {"name":"MGR Chennai Central Railway Station","location":"Park Town, Chennai","city":"Chennai","category":"Transportation","description":"MGR Chennai Central connects long-distance rail, suburban rail nearby, metro access, buses, and autos.","services":["railway","metro nearby","bus nearby","long-distance travel"],"tags":["chennai","transport","train","metro"],"hours":"Train schedules vary","cost":"Ticketed travel","lat":13.0827,"lon":80.2755,"source":"expanded city seed"},

  {"name":"Puthu Mandapam Market","location":"Near Meenakshi Amman Temple, Madurai","city":"Madurai","category":"Shops","description":"Puthu Mandapam Market has local shops for clothing, religious items, food, and daily needs near central Madurai.","services":["small shops","clothing","religious goods","food"],"tags":["madurai","shops","market","temple area"],"hours":"Verify before visiting","cost":"Paid shopping","lat":9.9195,"lon":78.1193,"source":"expanded city seed"},
  {"name":"Vishaal de Mal","location":"Gokhale Road, Madurai","city":"Madurai","category":"Mall","description":"Vishaal de Mal is a mall in Madurai with retail, food court, entertainment, and local service access.","services":["shopping","food court","entertainment","cab pickup"],"tags":["madurai","mall","shops","food"],"hours":"Verify before visiting","cost":"Paid shopping, free entry","lat":9.9339,"lon":78.1291,"source":"expanded city seed"},
  {"name":"Government Rajaji Hospital","location":"Panagal Road, Madurai","city":"Madurai","category":"Hospital","description":"Government Rajaji Hospital is a major public hospital and medical college resource in Madurai.","services":["hospital","emergency care","medical college","public health"],"tags":["madurai","hospital","government hospital"],"hours":"Emergency services may be 24 hours; verify departments","cost":"Government or subsidized services may vary","lat":9.9300,"lon":78.1250,"source":"expanded city seed"},
  {"name":"Robin Hood Army Madurai","location":"Madurai city chapter","city":"Madurai","category":"NGO","description":"Robin Hood Army Madurai supports food redistribution and community outreach through volunteer drives.","services":["food distribution","volunteer support","hunger relief"],"tags":["madurai","ngo","free food","volunteers"],"hours":"Volunteer schedule varies","cost":"Free support when available","lat":9.9252,"lon":78.1198,"source":"expanded city seed"},
  {"name":"Madurai Junction Railway Station","location":"Madurai Junction, Madurai","city":"Madurai","category":"Transportation","description":"Madurai Junction connects rail travel with buses, autos, and central city access.","services":["railway","autos","bus nearby","long-distance travel"],"tags":["madurai","transport","train"],"hours":"Train schedules vary","cost":"Ticketed travel","lat":9.9197,"lon":78.1117,"source":"expanded city seed"},

  {"name":"Chaura Bazaar","location":"Old Ludhiana, Ludhiana","city":"Ludhiana","category":"Shops","description":"Chaura Bazaar is a busy local shopping area for clothes, groceries, household goods, food, and daily essentials.","services":["clothing","groceries","household supplies","food"],"tags":["ludhiana","shops","market","essentials"],"hours":"Verify before visiting","cost":"Paid shopping","lat":30.9146,"lon":75.8543,"source":"expanded city seed"},
  {"name":"Pavilion Mall Ludhiana","location":"Civil Lines, Ludhiana","city":"Ludhiana","category":"Mall","description":"Pavilion Mall Ludhiana offers retail stores, food court, entertainment, ATMs, and ride pickup zones.","services":["shopping","food court","entertainment","cab pickup"],"tags":["ludhiana","mall","shops","food"],"hours":"Verify before visiting","cost":"Paid shopping, free entry","lat":30.9026,"lon":75.8368,"source":"expanded city seed"},
  {"name":"Dayanand Medical College and Hospital","location":"Civil Lines, Ludhiana","city":"Ludhiana","category":"Hospital","description":"Dayanand Medical College and Hospital is a major hospital and medical institution in Ludhiana.","services":["hospital","emergency care","specialist care","medical college"],"tags":["ludhiana","hospital","medical"],"hours":"Emergency services may be 24 hours; verify departments","cost":"Services and charges vary","lat":30.9125,"lon":75.8357,"source":"expanded city seed"},
  {"name":"Robin Hood Army Ludhiana","location":"Ludhiana city chapter","city":"Ludhiana","category":"NGO","description":"Robin Hood Army Ludhiana is a volunteer network for food redistribution and community outreach when drives are active.","services":["food distribution","volunteer support","hunger relief"],"tags":["ludhiana","ngo","free food","volunteers"],"hours":"Volunteer schedule varies","cost":"Free support when available","lat":30.9010,"lon":75.8573,"source":"expanded city seed"},
  {"name":"Ludhiana Junction Railway Station","location":"Ludhiana Junction, Ludhiana","city":"Ludhiana","category":"Transportation","description":"Ludhiana Junction connects rail travel with buses, autos, and city transport access.","services":["railway","autos","bus nearby","long-distance travel"],"tags":["ludhiana","transport","train"],"hours":"Train schedules vary","cost":"Ticketed travel","lat":30.9120,"lon":75.8488,"source":"expanded city seed"},

  {"name":"Heart Hospital Doctors Colony","location":"Doctors Colony, Kankarbagh, Patna","city":"Patna","category":"Hospital","description":"Heart Hospital Doctors Colony is a Patna hospital resource near Doctors Colony for emergency support, OPD care, cardiac care, and diagnostics. Verify services before visiting.","services":["hospital","emergency support","cardiology","diagnostics nearby"],"tags":["patna","doctors colony","kankarbagh","hospital","cardiac"],"hours":"Verify emergency and OPD timings before visiting","cost":"Charges vary","lat":25.5913,"lon":85.1585,"source":"https://www.hhmpatna.com/"},
  {"name":"Nectar Hospital Doctors Colony","location":"Doctors Colony, Kankarbagh, Patna","city":"Patna","category":"Hospital","description":"Nectar Hospital Doctors Colony is a Patna hospital and OPD care resource in Kankarbagh near Doctors Colony. Verify doctor and department availability before visiting.","services":["hospital","OPD care","specialist care","diagnostics nearby"],"tags":["patna","doctors colony","kankarbagh","hospital","opd"],"hours":"Verify emergency and OPD timings before visiting","cost":"Charges vary","lat":25.5910,"lon":85.1590,"source":"https://nectarhospital.in/"},
  {"name":"Doctors Colony Medical and Daily Needs Shops","location":"Doctors Colony, Kankarbagh, Patna","city":"Patna","category":"Shops","description":"Doctors Colony Medical and Daily Needs Shops represents local pharmacy, medical supplies, groceries, and basic daily-needs shops around Doctors Colony Kankarbagh.","services":["pharmacy nearby","medical supplies","daily essentials","groceries"],"tags":["patna","doctors colony","kankarbagh","shops","pharmacy"],"hours":"Verify shop timings before visiting","cost":"Paid shopping","lat":25.5916,"lon":85.1584,"source":"expanded city seed"},
  {"name":"Heart Hospital Multispeciality Doctors","location":"Doctors Colony, Kankarbagh, Patna","city":"Patna","category":"Doctors","description":"Heart Hospital Multispeciality Doctors is a Patna Doctors Colony resource for doctor consultation, cardiac care, and specialist referral support. Verify doctor availability before visiting.","services":["doctor consultation","cardiology","specialist referral","diagnostics nearby"],"tags":["patna","doctors colony","kankarbagh","doctor","cardiologist"],"hours":"Verify OPD timings before visiting","cost":"Consultation charges vary","lat":25.5913,"lon":85.1585,"source":"https://www.hhmpatna.com/"},
  {"name":"Nectar Hospital Consultant Doctors","location":"Doctors Colony, Kankarbagh, Patna","city":"Patna","category":"Doctors","description":"Nectar Hospital Consultant Doctors is a Doctors Colony Patna resource for OPD consultation, specialist doctors, and hospital-linked care. Verify doctor schedule before visiting.","services":["doctor consultation","specialist OPD","hospital care","diagnostics nearby"],"tags":["patna","doctors colony","kankarbagh","doctor","opd"],"hours":"Verify OPD timings before visiting","cost":"Consultation charges vary","lat":25.5910,"lon":85.1590,"source":"https://nectarhospital.in/"},
  {"name":"Care Health Center Doctors Colony","location":"Doctors Colony, Kankarbagh, Patna","city":"Patna","category":"Doctors","description":"Care Health Center Doctors Colony is a local Patna clinic resource for doctor consultation and basic medical support. Verify timings and doctor availability before visiting.","services":["doctor consultation","clinic","basic medical support","local healthcare"],"tags":["patna","doctors colony","kankarbagh","doctor","clinic"],"hours":"Verify clinic timings before visiting","cost":"Consultation charges vary","lat":25.5920,"lon":85.1580,"source":"expanded city seed"},
  {"name":"Patna Children Hospital Pediatric Doctors","location":"Doctors Colony, Kankarbagh, Patna","city":"Patna","category":"Doctors","description":"Patna Children Hospital Pediatric Doctors is a Doctors Colony resource for child health consultation and pediatric care. Verify pediatrician schedule before visiting.","services":["pediatrician","child health","doctor consultation","hospital care"],"tags":["patna","doctors colony","kankarbagh","doctor","pediatrician"],"hours":"Verify OPD timings before visiting","cost":"Consultation charges vary","lat":25.5918,"lon":85.1588,"source":"expanded city seed"},
  {"name":"Doctors Colony General Physician Clinics","location":"Doctors Colony, Kankarbagh, Patna","city":"Patna","category":"Doctors","description":"Doctors Colony General Physician Clinics represents nearby general doctor consultation options in the Doctors Colony area of Patna. Use this for local physician search and verify the clinic before visiting.","services":["general physician","doctor consultation","primary care","local clinic"],"tags":["patna","doctors colony","kankarbagh","doctor","physician"],"hours":"Verify clinic timings before visiting","cost":"Consultation charges vary","lat":25.5915,"lon":85.1583,"source":"expanded city seed"}
]
