[
  {"name":"Alambagh Bus Stand","location":"Alambagh, Lucknow","city":"Lucknow","category":"Transportation","description":"Alambagh Bus Stand is a major Lucknow bus terminal for intercity buses, local transport, autos, and cab pickup.","services":["bus stand","intercity buses","autos","cab pickup"],"tags":["lucknow","alambagh","bus stand","transport"],"hours":"Bus schedules vary","cost":"Ticketed travel","lat":26.8079,"lon":80.9031,"source":"transportation seed"},
  {"name":"Charbagh Railway Cab and Auto Stand","location":"Charbagh Railway Station, Lucknow","city":"Lucknow","category":"Transportation","description":"Charbagh Railway Cab and Auto Stand supports train passengers with autos, taxis, app cab pickup, and nearby bus access.","services":["railway station","cab stand","auto stand","bus nearby"],"tags":["lucknow","charbagh","cab stand","railway"],"hours":"Service availability varies","cost":"Fare varies","lat":26.8318,"lon":80.9211,"source":"transportation seed"},
  {"name":"Kaiserbagh Bus Station","location":"Kaiserbagh, Lucknow","city":"Lucknow","category":"Transportation","description":"Kaiserbagh Bus Station is a city bus and regional bus access point with autos and local transport nearby.","services":["bus stand","local buses","autos","regional buses"],"tags":["lucknow","kaiserbagh","bus stand","transport"],"hours":"Bus schedules vary","cost":"Ticketed travel","lat":26.8584,"lon":80.9342,"source":"transportation seed"},

  {"name":"Anand Vihar ISBT","location":"Anand Vihar, Delhi","city":"Delhi","category":"Transportation","description":"Anand Vihar ISBT connects interstate buses with railway, metro, autos, and cab pickup access.","services":["bus stand","interstate buses","metro nearby","cab pickup"],"tags":["delhi","anand vihar","isbt","bus stand"],"hours":"Bus schedules vary","cost":"Ticketed travel","lat":28.6469,"lon":77.3160,"source":"transportation seed"},
  {"name":"New Delhi Railway Station Cab Stand","location":"Paharganj and Ajmeri Gate, New Delhi","city":"Delhi","category":"Transportation","description":"New Delhi Railway Station Cab Stand supports train passengers with taxi, auto, app cab pickup, and metro access.","services":["railway station","cab stand","auto stand","metro nearby"],"tags":["delhi","new delhi station","cab stand","railway"],"hours":"Service availability varies","cost":"Fare varies","lat":28.6425,"lon":77.2190,"source":"transportation seed"},
  {"name":"Sarai Kale Khan ISBT","location":"Sarai Kale Khan, Delhi","city":"Delhi","category":"Transportation","description":"Sarai Kale Khan ISBT is an interstate bus terminal with autos, taxis, local buses, and railway access nearby.","services":["bus stand","interstate buses","autos","cab pickup"],"tags":["delhi","sarai kale khan","isbt","bus stand"],"hours":"Bus schedules vary","cost":"Ticketed travel","lat":28.5890,"lon":77.2565,"source":"transportation seed"},

  {"name":"Varanasi Cantt Bus Stand","location":"Cantt, Banaras","city":"Banaras","category":"Transportation","description":"Varanasi Cantt Bus Stand connects city and regional buses with autos, cab pickup, and railway access nearby.","services":["bus stand","regional buses","autos","cab pickup"],"tags":["banaras","varanasi","cantt","bus stand"],"hours":"Bus schedules vary","cost":"Ticketed travel","lat":25.3260,"lon":82.9867,"source":"transportation seed"},
  {"name":"Varanasi Junction Cab and Auto Stand","location":"Varanasi Junction, Cantt, Banaras","city":"Banaras","category":"Transportation","description":"Varanasi Junction Cab and Auto Stand supports railway passengers with autos, taxis, app cab pickup, and nearby buses.","services":["railway station","cab stand","auto stand","bus nearby"],"tags":["banaras","varanasi","cab stand","railway"],"hours":"Service availability varies","cost":"Fare varies","lat":25.3265,"lon":82.9861,"source":"transportation seed"},
  {"name":"Godowlia Auto and Taxi Stand","location":"Godowlia, Banaras","city":"Banaras","category":"Transportation","description":"Godowlia Auto and Taxi Stand is a local pickup point for autos, taxis, and access to old city markets and ghats.","services":["auto stand","taxi stand","local transport","market access"],"tags":["banaras","varanasi","godowlia","auto stand"],"hours":"Service availability varies","cost":"Fare varies","lat":25.3096,"lon":83.0104,"source":"transportation seed"},

  {"name":"Bhopal ISBT","location":"Habibganj Road, Bhopal","city":"Bhopal","category":"Transportation","description":"Bhopal ISBT is a major bus terminal for intercity buses, local buses, autos, and cab pickup.","services":["bus stand","intercity buses","local buses","cab pickup"],"tags":["bhopal","isbt","bus stand","transport"],"hours":"Bus schedules vary","cost":"Ticketed travel","lat":23.2354,"lon":77.4340,"source":"transportation seed"},
  {"name":"Rani Kamlapati Railway Station Cab Stand","location":"Rani Kamlapati Railway Station, Bhopal","city":"Bhopal","category":"Transportation","description":"Rani Kamlapati Railway Station Cab Stand provides taxi, auto, app cab pickup, and bus access around the station.","services":["railway station","cab stand","auto stand","bus nearby"],"tags":["bhopal","rani kamlapati","cab stand","railway"],"hours":"Service availability varies","cost":"Fare varies","lat":23.2291,"lon":77.4397,"source":"transportation seed"},
  {"name":"Nadra Bus Stand","location":"Nadra, Bhopal","city":"Bhopal","category":"Transportation","description":"Nadra Bus Stand is a city transport point for buses, shared autos, local routes, and nearby cab access.","services":["bus stand","local buses","shared autos","cab nearby"],"tags":["bhopal","nadra","bus stand","transport"],"hours":"Bus schedules vary","cost":"Ticketed travel","lat":23.2665,"lon":77.4092,"source":"transportation seed"},

  {"name":"Gaya Bus Stand","location":"Sikaria More, Gaya","city":"Gaya","category":"Transportation","description":"Gaya Bus Stand near Sikaria More connects regional buses, autos, shared transport, and cab pickup.","services":["bus stand","regional buses","autos","cab pickup"],"tags":["gaya","sikaria more","bus stand","transport"],"hours":"Bus schedules vary","cost":"Ticketed travel","lat":24.7864,"lon":84.9992,"source":"transportation seed"},
  {"name":"Gaya Junction Cab and Auto Stand","location":"Gaya Junction Railway Station, Gaya","city":"Gaya","category":"Transportation","description":"Gaya Junction Cab and Auto Stand supports railway passengers with autos, taxis, app cab pickup, and local buses.","services":["railway station","cab stand","auto stand","bus nearby"],"tags":["gaya","junction","cab stand","railway"],"hours":"Service availability varies","cost":"Fare varies","lat":24.7964,"lon":85.0070,"source":"transportation seed"},
  {"name":"Bodh Gaya Bus and Taxi Stand","location":"Bodh Gaya Road, Gaya","city":"Gaya","category":"Transportation","description":"Bodh Gaya Bus and Taxi Stand connects Gaya city with Bodh Gaya through buses, taxis, autos, and shared transport.","services":["bus stand","taxi stand","autos","shared transport"],"tags":["gaya","bodh gaya","taxi stand","bus stand"],"hours":"Service availability varies","cost":"Fare varies","lat":24.6961,"lon":84.9913,"source":"transportation seed"},

  {"name":"Patna ISBT Bairiya","location":"Bairiya, Patna","city":"Patna","category":"Transportation","description":"Patna ISBT Bairiya is a major bus terminal for intercity buses, local buses, autos, and cab pickup.","services":["bus stand","intercity buses","local buses","cab pickup"],"tags":["patna","bairiya","isbt","bus stand"],"hours":"Bus schedules vary","cost":"Ticketed travel","lat":25.5812,"lon":85.2117,"source":"transportation seed"},
  {"name":"Patna Junction Cab and Auto Stand","location":"Patna Junction, Patna","city":"Patna","category":"Transportation","description":"Patna Junction Cab and Auto Stand supports railway passengers with taxis, autos, app cab pickup, and local bus access.","services":["railway station","cab stand","auto stand","bus nearby"],"tags":["patna","patna junction","cab stand","railway"],"hours":"Service availability varies","cost":"Fare varies","lat":25.6028,"lon":85.1376,"source":"transportation seed"},
  {"name":"Doctors Colony Kankarbagh Auto and Cab Stand","location":"Doctors Colony, Kankarbagh, Patna","city":"Patna","category":"Transportation","description":"Doctors Colony Kankarbagh Auto and Cab Stand is a local pickup point for autos, app cabs, taxis, and short-distance transport near Doctors Colony.","services":["cab stand","auto stand","local transport","pickup point"],"tags":["patna","doctors colony","kankarbagh","cab stand","auto stand"],"hours":"Service availability varies","cost":"Fare varies","lat":25.5915,"lon":85.1585,"source":"transportation seed"},

  {"name":"Civil Lines Bus Stand Prayagraj","location":"Civil Lines, Allahabad","city":"Allahabad","category":"Transportation","description":"Civil Lines Bus Stand connects city and regional buses with autos, cab pickup, and market access.","services":["bus stand","regional buses","autos","cab pickup"],"tags":["allahabad","prayagraj","civil lines","bus stand"],"hours":"Bus schedules vary","cost":"Ticketed travel","lat":25.4540,"lon":81.8346,"source":"transportation seed"},
  {"name":"Prayagraj Junction Cab and Auto Stand","location":"Prayagraj Junction, Allahabad","city":"Allahabad","category":"Transportation","description":"Prayagraj Junction Cab and Auto Stand supports railway passengers with autos, taxis, app cab pickup, and buses nearby.","services":["railway station","cab stand","auto stand","bus nearby"],"tags":["allahabad","prayagraj","cab stand","railway"],"hours":"Service availability varies","cost":"Fare varies","lat":25.4454,"lon":81.8268,"source":"transportation seed"},
  {"name":"Zero Road Bus Stand","location":"Zero Road, Allahabad","city":"Allahabad","category":"Transportation","description":"Zero Road Bus Stand is a local and regional bus point with autos, shared transport, and city market access.","services":["bus stand","local buses","regional buses","autos"],"tags":["allahabad","prayagraj","zero road","bus stand"],"hours":"Bus schedules vary","cost":"Ticketed travel","lat":25.4368,"lon":81.8465,"source":"transportation seed"},

  {"name":"KSRTC Bus Stand Bejai","location":"Bejai, Mangalore","city":"Mangalore","category":"Transportation","description":"KSRTC Bus Stand Bejai connects Mangalore with regional buses, city buses, autos, and cab pickup.","services":["bus stand","regional buses","city buses","cab pickup"],"tags":["mangalore","mangaluru","bejai","bus stand"],"hours":"Bus schedules vary","cost":"Ticketed travel","lat":12.8873,"lon":74.8415,"source":"transportation seed"},
  {"name":"Mangalore Central Cab and Auto Stand","location":"Mangalore Central Railway Station, Hampankatta","city":"Mangalore","category":"Transportation","description":"Mangalore Central Cab and Auto Stand supports train passengers with autos, taxis, app cab pickup, and city bus access.","services":["railway station","cab stand","auto stand","bus nearby"],"tags":["mangalore","mangaluru","cab stand","railway"],"hours":"Service availability varies","cost":"Fare varies","lat":12.8654,"lon":74.8439,"source":"transportation seed"},
  {"name":"Mangalore Junction Railway Station Taxi Stand","location":"Mangalore Junction, Kankanady, Mangalore","city":"Mangalore","category":"Transportation","description":"Mangalore Junction Railway Station Taxi Stand provides taxis, autos, and cab pickup for railway passengers.","services":["railway station","taxi stand","auto stand","cab pickup"],"tags":["mangalore","mangaluru","kankanady","taxi stand"],"hours":"Service availability varies","cost":"Fare varies","lat":12.9141,"lon":74.8560,"source":"transportation seed"},

  {"name":"Swargate Bus Stand","location":"Swargate, Pune","city":"Pune","category":"Transportation","description":"Swargate Bus Stand is a major Pune bus terminal for city buses, regional buses, autos, and cab pickup.","services":["bus stand","city buses","regional buses","cab pickup"],"tags":["pune","swargate","bus stand","transport"],"hours":"Bus schedules vary","cost":"Ticketed travel","lat":18.5018,"lon":73.8636,"source":"transportation seed"},
  {"name":"Pune Station Cab and Auto Stand","location":"Pune Junction Railway Station, Pune","city":"Pune","category":"Transportation","description":"Pune Station Cab and Auto Stand supports railway passengers with autos, taxis, app cab pickup, and city buses.","services":["railway station","cab stand","auto stand","bus nearby"],"tags":["pune","pune station","cab stand","railway"],"hours":"Service availability varies","cost":"Fare varies","lat":18.5289,"lon":73.8744,"source":"transportation seed"},
  {"name":"Shivajinagar Bus Stand","location":"Shivajinagar, Pune","city":"Pune","category":"Transportation","description":"Shivajinagar Bus Stand provides city and regional bus access with autos, cabs, and railway access nearby.","services":["bus stand","local buses","regional buses","autos"],"tags":["pune","shivajinagar","bus stand","transport"],"hours":"Bus schedules vary","cost":"Ticketed travel","lat":18.5322,"lon":73.8514,"source":"transportation seed"},

  {"name":"CMBT Koyambedu Bus Terminus","location":"Koyambedu, Chennai","city":"Chennai","category":"Transportation","description":"CMBT Koyambedu is a major Chennai bus terminus for intercity buses, local buses, metro access, autos, and cabs.","services":["bus stand","intercity buses","metro nearby","cab pickup"],"tags":["chennai","koyambedu","cmbt","bus stand"],"hours":"Bus schedules vary","cost":"Ticketed travel","lat":13.0692,"lon":80.2031,"source":"transportation seed"},
  {"name":"Chennai Central Taxi and Auto Stand","location":"MGR Chennai Central Railway Station, Park Town","city":"Chennai","category":"Transportation","description":"Chennai Central Taxi and Auto Stand supports railway passengers with taxis, autos, app cabs, metro, and bus access.","services":["railway station","taxi stand","auto stand","metro nearby"],"tags":["chennai","central","taxi stand","railway"],"hours":"Service availability varies","cost":"Fare varies","lat":13.0827,"lon":80.2755,"source":"transportation seed"},
  {"name":"Chennai Egmore Railway Cab Stand","location":"Egmore Railway Station, Chennai","city":"Chennai","category":"Transportation","description":"Chennai Egmore Railway Cab Stand provides autos, taxis, app cab pickup, and city bus access around Egmore station.","services":["railway station","cab stand","auto stand","bus nearby"],"tags":["chennai","egmore","cab stand","railway"],"hours":"Service availability varies","cost":"Fare varies","lat":13.0780,"lon":80.2608,"source":"transportation seed"},

  {"name":"Mattuthavani Bus Stand","location":"Mattuthavani, Madurai","city":"Madurai","category":"Transportation","description":"Mattuthavani Bus Stand is a major Madurai bus terminal for regional buses, city buses, autos, and cabs.","services":["bus stand","regional buses","city buses","cab pickup"],"tags":["madurai","mattuthavani","bus stand","transport"],"hours":"Bus schedules vary","cost":"Ticketed travel","lat":9.9440,"lon":78.1618,"source":"transportation seed"},
  {"name":"Madurai Junction Cab and Auto Stand","location":"Madurai Junction Railway Station, Madurai","city":"Madurai","category":"Transportation","description":"Madurai Junction Cab and Auto Stand supports railway passengers with autos, taxis, app cab pickup, and buses nearby.","services":["railway station","cab stand","auto stand","bus nearby"],"tags":["madurai","junction","cab stand","railway"],"hours":"Service availability varies","cost":"Fare varies","lat":9.9197,"lon":78.1117,"source":"transportation seed"},
  {"name":"Periyar Bus Stand","location":"Periyar, Madurai","city":"Madurai","category":"Transportation","description":"Periyar Bus Stand is a central local bus point with autos, shared transport, and access to markets and railway station.","services":["bus stand","local buses","autos","market access"],"tags":["madurai","periyar","bus stand","transport"],"hours":"Bus schedules vary","cost":"Ticketed travel","lat":9.9193,"lon":78.1190,"source":"transportation seed"},

  {"name":"Ludhiana Bus Stand","location":"Model Gram Road, Ludhiana","city":"Ludhiana","category":"Transportation","description":"Ludhiana Bus Stand connects intercity buses, local buses, autos, and cab pickup in central Ludhiana.","services":["bus stand","intercity buses","local buses","cab pickup"],"tags":["ludhiana","bus stand","transport"],"hours":"Bus schedules vary","cost":"Ticketed travel","lat":30.8992,"lon":75.8486,"source":"transportation seed"},
  {"name":"Ludhiana Junction Cab and Auto Stand","location":"Ludhiana Junction Railway Station, Ludhiana","city":"Ludhiana","category":"Transportation","description":"Ludhiana Junction Cab and Auto Stand supports railway passengers with autos, taxis, app cab pickup, and buses nearby.","services":["railway station","cab stand","auto stand","bus nearby"],"tags":["ludhiana","junction","cab stand","railway"],"hours":"Service availability varies","cost":"Fare varies","lat":30.9120,"lon":75.8488,"source":"transportation seed"},
  {"name":"Jagraon Bridge Auto and Cab Pickup","location":"Jagraon Bridge, Ludhiana","city":"Ludhiana","category":"Transportation","description":"Jagraon Bridge Auto and Cab Pickup is a local pickup area for autos, taxis, app cabs, and short-distance transport.","services":["auto stand","cab pickup","taxi stand","local transport"],"tags":["ludhiana","jagraon bridge","cab stand","auto stand"],"hours":"Service availability varies","cost":"Fare varies","lat":30.9083,"lon":75.8491,"source":"transportation seed"},

  {"name":"Shanti Nagar Bus Station","location":"Shanti Nagar, Bengaluru","city":"Bengaluru","category":"Transportation","description":"Shanti Nagar Bus Station supports city and intercity buses with autos, taxis, and cab pickup nearby.","services":["bus stand","city buses","intercity buses","cab pickup"],"tags":["bengaluru","bangalore","shanti nagar","bus stand"],"hours":"Bus schedules vary","cost":"Ticketed travel","lat":12.9543,"lon":77.5921,"source":"transportation seed"},
  {"name":"Majestic Cab and Auto Stand","location":"Majestic, Bengaluru","city":"Bengaluru","category":"Transportation","description":"Majestic Cab and Auto Stand connects railway, metro, bus, autos, taxis, and app cab pickup around the city center.","services":["cab stand","auto stand","metro nearby","bus nearby"],"tags":["bengaluru","bangalore","majestic","cab stand"],"hours":"Service availability varies","cost":"Fare varies","lat":12.9766,"lon":77.5713,"source":"transportation seed"},
  {"name":"Yeshwanthpur Railway Station Taxi Stand","location":"Yeshwanthpur Railway Station, Bengaluru","city":"Bengaluru","category":"Transportation","description":"Yeshwanthpur Railway Station Taxi Stand supports railway passengers with taxis, autos, app cab pickup, and metro access nearby.","services":["railway station","taxi stand","auto stand","metro nearby"],"tags":["bengaluru","bangalore","yeshwanthpur","taxi stand"],"hours":"Service availability varies","cost":"Fare varies","lat":13.0238,"lon":77.5502,"source":"transportation seed"},

  {"name":"Mumbai Central ST Bus Depot","location":"Mumbai Central, Mumbai","city":"Mumbai","category":"Transportation","description":"Mumbai Central ST Bus Depot connects regional buses with railway, taxis, autos, and local transport nearby.","services":["bus stand","regional buses","railway nearby","cab pickup"],"tags":["mumbai","mumbai central","bus stand","transport"],"hours":"Bus schedules vary","cost":"Ticketed travel","lat":18.9696,"lon":72.8194,"source":"transportation seed"},
  {"name":"Dadar Station Taxi and Auto Stand","location":"Dadar Railway Station, Mumbai","city":"Mumbai","category":"Transportation","description":"Dadar Station Taxi and Auto Stand supports local train passengers with taxis, autos, app cab pickup, and bus access.","services":["railway station","taxi stand","auto stand","bus nearby"],"tags":["mumbai","dadar","taxi stand","railway"],"hours":"Service availability varies","cost":"Fare varies","lat":19.0180,"lon":72.8437,"source":"transportation seed"},
  {"name":"Bandra Terminus Cab and Auto Stand","location":"Bandra Terminus, Mumbai","city":"Mumbai","category":"Transportation","description":"Bandra Terminus Cab and Auto Stand provides taxis, autos, app cab pickup, and bus access for rail passengers.","services":["railway station","cab stand","auto stand","bus nearby"],"tags":["mumbai","bandra terminus","cab stand","railway"],"hours":"Service availability varies","cost":"Fare varies","lat":19.0621,"lon":72.8405,"source":"transportation seed"}
]
